{
  "meta": {
    "name": "전국 주요 축제 캘린더",
    "description": "한국관광공사 + 문화체육관광부 + 각 지자체 공식 축제. 월별·지역별 정리. 외래관광객 30만 이상 대형 축제 우선.",
    "as_of": "2026-05",
    "source": "한국관광공사 visitkorea.or.kr + 문체부 우수축제 + 각 지자체 공식 발표",
    "update_cycle": "월 1회 (시즌별 변동)",
    "license": "비상업적 활용 시 출처 표시"
  },
  "festivals": [
    {"id":"jinhae-cherry","name_ko":"진해 군항제","name_en":"Jinhae Cherry Blossom","city":"Changwon","sido":"경상남도","category":"꽃","period_start":"04-01","period_end":"04-10","lat":35.1467,"lng":128.6839,"highlight":"한국 최대 벚꽃축제. 35만 그루.","attendance":"500만명","website":"jinhae.changwon.go.kr"},
    {"id":"seoul-fireworks","name_ko":"서울 세계불꽃축제","name_en":"Seoul Fireworks","city":"Seoul","sido":"서울특별시","category":"불꽃","period_start":"10-05","period_end":"10-05","lat":37.5283,"lng":126.9344,"highlight":"여의도 한강. 한화 주최. 100만명 운집.","attendance":"100만명"},
    {"id":"busan-film","name_ko":"부산국제영화제 (BIFF)","name_en":"Busan International Film Festival","city":"Busan","sido":"부산광역시","category":"영화","period_start":"10-02","period_end":"10-11","lat":35.1586,"lng":129.1603,"highlight":"아시아 최대 영화제. 30주년.","attendance":"20만명"},
    {"id":"boryeong-mud","name_ko":"보령머드축제","name_en":"Boryeong Mud Festival","city":"Boryeong","sido":"충청남도","category":"축제","period_start":"07-18","period_end":"07-27","lat":36.3169,"lng":126.5119,"highlight":"외국인 관광객 1위 한국 축제. 머드 체험.","attendance":"30만명"},
    {"id":"andong-mask","name_ko":"안동국제탈춤페스티벌","name_en":"Andong Mask Festival","city":"Andong","sido":"경상북도","category":"전통","period_start":"09-26","period_end":"10-05","lat":36.5398,"lng":128.5181,"highlight":"세계 탈춤 + 하회별신굿. UNESCO 연계.","attendance":"150만명"},
    {"id":"hwacheon-sancheoneo","name_ko":"화천 산천어축제","name_en":"Hwacheon Sancheoneo Ice Festival","city":"Hwacheon","sido":"강원특별자치도","category":"겨울","period_start":"01-04","period_end":"01-26","lat":38.1064,"lng":127.7081,"highlight":"얼음낚시. CNN 7대 겨울 wonders.","attendance":"150만명"},
    {"id":"jinju-namgang","name_ko":"진주남강유등축제","name_en":"Jinju Namgang Lantern Festival","city":"Jinju","sido":"경상남도","category":"전통","period_start":"10-01","period_end":"10-15","lat":35.1858,"lng":128.0856,"highlight":"임진왜란 진주성 전투 기원. 등불 명품.","attendance":"280만명"},
    {"id":"damyang-bamboo","name_ko":"담양 대나무축제","name_en":"Damyang Bamboo Festival","city":"Damyang","sido":"전라남도","category":"꽃","period_start":"05-01","period_end":"05-08","lat":35.3208,"lng":126.9839,"highlight":"죽녹원 + 슬로시티. 대나무 체험.","attendance":"50만명"},
    {"id":"gangneung-coffee","name_ko":"강릉 커피축제","name_en":"Gangneung Coffee Festival","city":"Gangneung","sido":"강원특별자치도","category":"음식","period_start":"10-09","period_end":"10-13","lat":37.7708,"lng":128.9472,"highlight":"한국 커피의 시작. 안목해변 커피거리.","attendance":"30만명"},
    {"id":"yeongdong-grape","name_ko":"영동 포도축제","name_en":"Yeongdong Grape Festival","city":"Yeongdong","sido":"충청북도","category":"음식","period_start":"08-22","period_end":"08-31","lat":36.1750,"lng":127.7833,"highlight":"포도·와인 산지.","attendance":"50만명"},
    {"id":"buyeo-baekje","name_ko":"부여 백제문화제","name_en":"Baekje Cultural Festival","city":"Buyeo","sido":"충청남도","category":"전통","period_start":"09-29","period_end":"10-08","lat":36.2761,"lng":126.8919,"highlight":"백제 1500주년. UNESCO 유산.","attendance":"100만명"},
    {"id":"icheon-pottery","name_ko":"이천도자기축제","name_en":"Icheon Ceramic Festival","city":"Icheon","sido":"경기도","category":"문화","period_start":"04-27","period_end":"05-12","lat":37.2756,"lng":127.4358,"highlight":"한국 도자기 메카.","attendance":"100만명"},
    {"id":"taean-tulip","name_ko":"태안 튤립축제","name_en":"Taean Tulip Festival","city":"Taean","sido":"충청남도","category":"꽃","period_start":"04-12","period_end":"05-12","lat":36.5044,"lng":126.3194,"highlight":"안면도. 한국 최대 튤립.","attendance":"50만명"},
    {"id":"goryeong-deer","name_ko":"고령 대가야축제","name_en":"Goryeong Daegaya","city":"Goryeong","sido":"경상북도","category":"전통","period_start":"04-04","period_end":"04-07","lat":35.7106,"lng":128.2611,"highlight":"가야 본거지.","attendance":"30만명"},
    {"id":"jeju-fireworks","name_ko":"제주 들불축제","name_en":"Jeju Fire Festival","city":"Jeju","sido":"제주특별자치도","category":"전통","period_start":"03-08","period_end":"03-10","lat":33.4339,"lng":126.5764,"highlight":"제주 새별오름 산불 축제.","attendance":"40만명"},
    {"id":"seoul-lantern","name_ko":"서울빛초롱축제","name_en":"Seoul Lantern Festival","city":"Seoul","sido":"서울특별시","category":"전통","period_start":"11-01","period_end":"11-17","lat":37.5689,"lng":126.9786,"highlight":"청계천 등불.","attendance":"300만명"},
    {"id":"yangyang-songi","name_ko":"양양송이축제","name_en":"Yangyang Pine Mushroom","city":"Yangyang","sido":"강원특별자치도","category":"음식","period_start":"10-04","period_end":"10-08","lat":38.0764,"lng":128.6189,"highlight":"송이버섯 산지.","attendance":"30만명"},
    {"id":"hampyeong-butterfly","name_ko":"함평나비축제","name_en":"Hampyeong Butterfly","city":"Hampyeong","sido":"전라남도","category":"꽃","period_start":"04-26","period_end":"05-06","lat":35.0497,"lng":126.5378,"highlight":"나비 100만 마리.","attendance":"60만명"},
    {"id":"gimje-zipyeong","name_ko":"김제 지평선축제","name_en":"Gimje Horizon Festival","city":"Gimje","sido":"전북특별자치도","category":"농업","period_start":"10-02","period_end":"10-06","lat":35.7197,"lng":126.8869,"highlight":"한국 유일 지평선. 추수 축제.","attendance":"100만명"},
    {"id":"muju-firefly","name_ko":"무주반딧불축제","name_en":"Muju Firefly","city":"Muju","sido":"전북특별자치도","category":"자연","period_start":"08-31","period_end":"09-08","lat":36.0083,"lng":127.6611,"highlight":"천연기념물 반딧불.","attendance":"40만명"},
    {"id":"jecheon-international","name_ko":"제천국제음악영화제","name_en":"Jecheon Music Film","city":"Jecheon","sido":"충청북도","category":"영화","period_start":"08-14","period_end":"08-19","lat":37.1339,"lng":128.1989,"highlight":"음악 + 영화 결합.","attendance":"20만명"},
    {"id":"jeonju-bibimbap","name_ko":"전주비빔밥축제","name_en":"Jeonju Bibimbap","city":"Jeonju","sido":"전북특별자치도","category":"음식","period_start":"10-23","period_end":"10-27","lat":35.8154,"lng":127.1531,"highlight":"전주비빔밥 메카.","attendance":"50만명"},
    {"id":"gokseong-rosa","name_ko":"곡성 세계장미축제","name_en":"Gokseong Rose","city":"Gokseong","sido":"전라남도","category":"꽃","period_start":"05-17","period_end":"06-02","lat":35.2820,"lng":127.2941,"highlight":"기차마을·장미.","attendance":"100만명"},
    {"id":"daegu-chimaek","name_ko":"대구치맥페스티벌","name_en":"Daegu Chicken & Beer","city":"Daegu","sido":"대구광역시","category":"음식","period_start":"07-03","period_end":"07-07","lat":35.8717,"lng":128.6011,"highlight":"치킨 + 맥주 페스티벌.","attendance":"100만명"},
    {"id":"seokga","name_ko":"서울 등축제 (석가탄신일)","name_en":"Seoul Lotus Lantern","city":"Seoul","sido":"서울특별시","category":"전통","period_start":"05-12","period_end":"05-15","lat":37.5740,"lng":126.9826,"highlight":"UNESCO 인류무형유산.","attendance":"30만명"},
    {"id":"chuseok","name_ko":"추석 연휴","name_en":"Chuseok","city":"전국","sido":"전국","category":"명절","period_start":"09-15","period_end":"09-17","lat":36.5,"lng":127.8,"highlight":"한국 최대 명절. 송편·차례.","attendance":"전국민"},
    {"id":"seollal","name_ko":"설날 연휴","name_en":"Seollal","city":"전국","sido":"전국","category":"명절","period_start":"02-08","period_end":"02-10","lat":36.5,"lng":127.8,"highlight":"한국 최대 음력 명절. 떡국·세배.","attendance":"전국민"},
    {"id":"jindo-miracle","name_ko":"진도 신비의 바닷길","name_en":"Jindo Sea Parting","city":"Jindo","sido":"전라남도","category":"자연","period_start":"04-25","period_end":"04-28","lat":34.4814,"lng":126.2683,"highlight":"바닷길 갈라지는 신비. 모세 기적.","attendance":"50만명"},
    {"id":"yangyang-surf","name_ko":"양양 서핑축제","name_en":"Yangyang Surfing","city":"Yangyang","sido":"강원특별자치도","category":"스포츠","period_start":"08-01","period_end":"08-15","lat":38.0764,"lng":128.6489,"highlight":"한국 서핑 메카. MZ 핫플.","attendance":"20만명"},
    {"id":"chuncheon-mime","name_ko":"춘천마임축제","name_en":"Chuncheon Mime","city":"Chuncheon","sido":"강원특별자치도","category":"공연","period_start":"05-22","period_end":"05-28","lat":37.8813,"lng":127.7297,"highlight":"세계 3대 마임축제.","attendance":"30만명"},
    {"id":"jeju-cherry","name_ko":"제주 왕벚꽃축제","name_en":"Jeju Cherry Blossom","city":"Jeju","sido":"제주특별자치도","category":"꽃","period_start":"03-22","period_end":"04-05","lat":33.4881,"lng":126.4988,"highlight":"제주 왕벚꽃. 한국에서 가장 이른 벚꽃.","attendance":"40만명"},
    {"id":"yeoyu-iceflower","name_ko":"태백산 눈꽃축제","name_en":"Taebaeksan Snow Festival","city":"Taebaek","sido":"강원특별자치도","category":"겨울","period_start":"01-24","period_end":"02-02","lat":37.0961,"lng":128.9136,"highlight":"눈꽃·은빛 세상.","attendance":"30만명"},
    {"id":"namdo","name_ko":"남도음식문화축제","name_en":"Namdo Food","city":"Suncheon","sido":"전라남도","category":"음식","period_start":"10-10","period_end":"10-13","lat":34.9492,"lng":127.4878,"highlight":"전라도 한식 종합.","attendance":"50만명"},
    {"id":"jeonju-international","name_ko":"전주국제영화제","name_en":"Jeonju Film Festival","city":"Jeonju","sido":"전북특별자치도","category":"영화","period_start":"05-01","period_end":"05-10","lat":35.8154,"lng":127.1531,"highlight":"독립영화 메카.","attendance":"20만명"},
    {"id":"daejeon-science","name_ko":"대전사이언스페스티벌","name_en":"Daejeon Science Festival","city":"Daejeon","sido":"대전광역시","category":"과학","period_start":"10-19","period_end":"10-25","lat":36.3692,"lng":127.3858,"highlight":"과학도시.","attendance":"30만명"},
    {"id":"goheung-spaceland","name_ko":"고흥 우주항공축제","name_en":"Goheung Space","city":"Goheung","sido":"전라남도","category":"과학","period_start":"10-04","period_end":"10-06","lat":34.6044,"lng":127.2806,"highlight":"나로우주센터.","attendance":"20만명"},
    {"id":"namhae-jeon","name_ko":"남해 유자축제","name_en":"Namhae Yuja","city":"Namhae","sido":"경상남도","category":"음식","period_start":"11-09","period_end":"11-12","lat":34.8378,"lng":127.8919,"highlight":"유자 산지.","attendance":"20만명"},
    {"id":"goseong-dinosaur","name_ko":"고성공룡엑스포","name_en":"Goseong Dinosaur","city":"Goseong-2","sido":"경상남도","category":"전시","period_start":"04-04","period_end":"06-09","lat":34.9783,"lng":128.3267,"highlight":"공룡 발자국 화석.","attendance":"100만명"},
    {"id":"sancheong-medicine","name_ko":"산청한방약초축제","name_en":"Sancheong Herbal","city":"Sancheong","sido":"경상남도","category":"전통","period_start":"09-27","period_end":"10-06","lat":35.4153,"lng":127.8728,"highlight":"한방·약초.","attendance":"30만명"},
    {"id":"goseong-jangguk","name_ko":"고성 장구목축제","name_en":"Goseong Folk","city":"Goseong","sido":"강원특별자치도","category":"전통","period_start":"08-14","period_end":"08-17","lat":38.3097,"lng":128.4544,"highlight":"왕곡마을 민속.","attendance":"10만명"},
    {"id":"yongin-everland","name_ko":"에버랜드 튤립축제","name_en":"Everland Tulip","city":"Yongin","sido":"경기도","category":"꽃","period_start":"03-22","period_end":"05-12","lat":37.2944,"lng":127.2024,"highlight":"국내 최대 테마파크 봄.","attendance":"300만명"},
    {"id":"siheung-yeongteul","name_ko":"시흥 연꽃축제","name_en":"Siheung Lotus","city":"Siheung","sido":"경기도","category":"꽃","period_start":"07-19","period_end":"07-28","lat":37.3742,"lng":126.7833,"highlight":"관곡지 연꽃.","attendance":"30만명"},
    {"id":"halloween-itaewon","name_ko":"이태원 할로윈","name_en":"Itaewon Halloween","city":"Seoul","sido":"서울특별시","category":"문화","period_start":"10-30","period_end":"10-31","lat":37.5345,"lng":126.9947,"highlight":"외국인 + 한국 할로윈.","attendance":"100만명"},
    {"id":"seoul-rose","name_ko":"중랑서울장미축제","name_en":"Seoul Rose","city":"Seoul","sido":"서울특별시","category":"꽃","period_start":"05-17","period_end":"05-26","lat":37.6231,"lng":127.0978,"highlight":"중랑천 장미.","attendance":"100만명"}
  ],
  "by_month": {
    "1": ["화천 산천어축제","태백산 눈꽃축제"],
    "2": ["설날 연휴"],
    "3": ["제주 들불축제","제주 왕벚꽃축제","에버랜드 튤립축제"],
    "4": ["진해 군항제","태안 튤립축제","고령 대가야축제","함평 나비축제","진도 신비의 바닷길","에버랜드"],
    "5": ["담양 대나무축제","서울 등축제","춘천마임축제","곡성 장미축제","에버랜드","전주국제영화제","중랑 장미"],
    "6": ["에버랜드 튤립"],
    "7": ["보령머드축제","대구치맥","시흥 연꽃축제"],
    "8": ["무주반딧불","제천국제음악영화제","고성 장구목","양양 서핑축제"],
    "9": ["안동탈춤","무주반딧불","추석","산청한방"],
    "10": ["서울불꽃","부산국제영화제","안동탈춤","진주남강유등","강릉커피","부여백제","양양송이","김제지평선","전주비빔밥","대전사이언스","고흥우주","남도음식","이태원할로윈","산청한방"],
    "11": ["서울빛초롱","남해 유자"],
    "12": ["크리스마스 거리","해넘이"]
  },
  "categories": [
    {"id":"꽃","name":"꽃·계절","color":"#FF69B4","ico":"🌸"},
    {"id":"전통","name":"전통·문화","color":"#8B4513","ico":"🏮"},
    {"id":"음식","name":"음식","color":"#FF6347","ico":"🍜"},
    {"id":"불꽃","name":"불꽃·등불","color":"#FFA500","ico":"🎆"},
    {"id":"영화","name":"영화·공연","color":"#9370DB","ico":"🎬"},
    {"id":"겨울","name":"겨울","color":"#1E90FF","ico":"❄️"},
    {"id":"자연","name":"자연","color":"#27ae60","ico":"🌿"},
    {"id":"스포츠","name":"스포츠","color":"#e74c3c","ico":"🏄"},
    {"id":"명절","name":"명절","color":"#DAA520","ico":"🎊"}
  ]
}
