{
  "meta": {
    "name": "한국 템플스테이 운영 사찰 종합",
    "source": "한국불교문화사업단 templestay.com 운영 사찰 (총 171곳) + 조계종 25교구 본사 + 주요 비구니 본사 큐레이션",
    "as_of": "2026-05",
    "total_registered": 171,
    "categories": ["당일형(체험)","체험형(1박2일)","휴식형(자율)"],
    "license": "비상업적 활용 시 출처 표시 (K-STAY · 한국불교문화사업단)"
  },
  "temples": [
    {"id":"tongdosa","name_ko":"통도사","name_en":"Tongdosa","city":"양산","sido":"경상남도","address":"경남 양산시 하북면 통도사로 108","lat":35.4906,"lng":129.0658,"order":"대한불교조계종","headquarter":"제15교구 본사","founded":646,"highlight":"불보사찰(佛寶) - 부처님 진신사리. 한국 3보사찰 첫번째. UNESCO 산사 7대 사찰.","programs":["참선","발우공양","불교의식","사찰음식"]},
    {"id":"haeinsa","name_ko":"해인사","name_en":"Haeinsa","city":"합천","sido":"경상남도","address":"경남 합천군 가야면 해인사길 122","lat":35.8011,"lng":128.0978,"order":"대한불교조계종","headquarter":"제12교구 본사","founded":802,"highlight":"법보사찰(法寶) - 팔만대장경. 한국 3보사찰. UNESCO 세계기록유산.","programs":["참선","대장경 학습","발우공양"]},
    {"id":"songgwangsa","name_ko":"송광사","name_en":"Songgwangsa","city":"순천","sido":"전라남도","address":"전남 순천시 송광면 송광사안길 100","lat":35.0017,"lng":127.2842,"order":"대한불교조계종","headquarter":"제21교구 본사","founded":867,"highlight":"승보사찰(僧寶) - 16국사 배출. 한국 3보사찰. UNESCO 산사.","programs":["참선","간화선","발우공양"]},
    {"id":"jogyesa","name_ko":"조계사","name_en":"Jogyesa","city":"서울","sido":"서울특별시","address":"서울 종로구 우정국로 55","lat":37.5740,"lng":126.9826,"order":"대한불교조계종","headquarter":"총본산","founded":1395,"highlight":"조계종 총본산. 서울 도심 사찰. 외국인 친화 프로그램 다수.","programs":["당일형","불교문화 체험","외국인 영어 프로그램"]},
    {"id":"bongeunsa","name_ko":"봉은사","name_en":"Bongeunsa","city":"서울","sido":"서울특별시","address":"서울 강남구 봉은사로 531","lat":37.5151,"lng":127.0573,"order":"대한불교조계종","headquarter":"강남 직할","founded":794,"highlight":"강남 도심 사찰. 코엑스 인접. 영어 프로그램 활발.","programs":["당일형","외국인 영어","명상"]},
    {"id":"gilsangsa","name_ko":"길상사","name_en":"Gilsangsa","city":"서울","sido":"서울특별시","address":"서울 성북구 선잠로5길 68","lat":37.5970,"lng":127.0008,"order":"대한불교조계종","headquarter":"성북","founded":1997,"highlight":"법정스님 무소유 정신. 서울 도심 휴식형 명소.","programs":["휴식형","명상","법문"]},
    {"id":"hwagyesa","name_ko":"화계사","name_en":"Hwagyesa","city":"서울","sido":"서울특별시","address":"서울 강북구 화계사길 117","lat":37.6433,"lng":127.0117,"order":"대한불교조계종","headquarter":"강북","founded":1522,"highlight":"숭산스님 국제선원. 외국인 참선 본거지. 한국 최초 영어 템플스테이.","programs":["국제선","영어 참선","외국인"]},
    {"id":"jingwansa","name_ko":"진관사","name_en":"Jingwansa","city":"서울","sido":"서울특별시","address":"서울 은평구 진관길 73","lat":37.6422,"lng":126.9528,"order":"대한불교조계종","headquarter":"은평","founded":1011,"highlight":"북한산 자락. 비구니 사찰. 사찰음식 명소. 은평 한옥마을 인접.","programs":["사찰음식","당일형","비구니"]},
    {"id":"daewonjeongsa","name_ko":"대원정사","name_en":"Daewonjeongsa","city":"서울","sido":"서울특별시","address":"서울 송파구","lat":37.5031,"lng":127.0997,"order":"대한불교태고종","headquarter":"송파","founded":1968,"highlight":"송파 도심 사찰.","programs":["당일형","명상"]},
    {"id":"geumseonsaorigin","name_ko":"금선사","name_en":"Geumseonsa","city":"서울","sido":"서울특별시","address":"서울 종로구 비봉길 137","lat":37.6125,"lng":126.9603,"order":"대한불교조계종","headquarter":"종로","founded":1396,"highlight":"북한산 자락. 도심 인접 휴식.","programs":["휴식형","명상"]},
    {"id":"gukjeseonwon","name_ko":"국제선센터","name_en":"International Seon Center","city":"서울","sido":"서울특별시","address":"서울 양천구","lat":37.5169,"lng":126.8669,"order":"대한불교조계종","headquarter":"양천","founded":2010,"highlight":"국제 선원. 외국인 참선 특화.","programs":["국제선","영어"]},
    {"id":"gwanmunsa","name_ko":"관문사","name_en":"Gwanmunsa","city":"서울","sido":"서울특별시","address":"서울 서초구","lat":37.4761,"lng":127.0339,"order":"대한불교조계종","headquarter":"서초","founded":1968,"highlight":"서초 도심 사찰. 천태종.","programs":["당일형","명상"]},
    {"id":"gyeonggoksa","name_ko":"경국사","name_en":"Gyeongguksa","city":"서울","sido":"서울특별시","address":"서울 성북구","lat":37.6033,"lng":127.0136,"order":"대한불교조계종","headquarter":"성북","founded":1325,"highlight":"북한산 자락 비구니 사찰.","programs":["휴식형","비구니"]},
    {"id":"doseonsa","name_ko":"도선사","name_en":"Doseonsa","city":"서울","sido":"서울특별시","address":"서울 강북구 우이동","lat":37.6622,"lng":127.0067,"order":"대한불교조계종","headquarter":"강북","founded":862,"highlight":"북한산 자락. 도선국사 창건.","programs":["당일형","명상"]},
    {"id":"bulguksa","name_ko":"불국사","name_en":"Bulguksa","city":"경주","sido":"경상북도","address":"경북 경주시 불국로 385","lat":35.7898,"lng":129.3320,"order":"대한불교조계종","headquarter":"제11교구 본사","founded":528,"highlight":"신라 대표 사찰. UNESCO 세계유산. 석굴암 결합. 다보탑·석가탑.","programs":["체험형","경주 문화","외국인"]},
    {"id":"gisamsa","name_ko":"기림사","name_en":"Girimsa","city":"경주","sido":"경상북도","address":"경북 경주시 양북면 기림로 437-17","lat":35.7494,"lng":129.4275,"order":"대한불교조계종","headquarter":"제11교구 말사","founded":643,"highlight":"감은사지 결합. 경주 외곽 한적.","programs":["휴식형","경주 답사"]},
    {"id":"golgulsa","name_ko":"골굴사","name_en":"Golgulsa","city":"경주","sido":"경상북도","address":"경북 경주시 양북면 기림로 101-5","lat":35.7411,"lng":129.4364,"order":"대한불교조계종","headquarter":"제11교구","founded":600,"highlight":"한국 유일 석굴 사원. 선무도(禪武道) 본거지.","programs":["선무도","체험형","외국인"]},
    {"id":"gamsansa","name_ko":"감산사","name_en":"Gamsansa","city":"경주","sido":"경상북도","address":"경북 경주시 외동읍","lat":35.7833,"lng":129.3056,"order":"대한불교조계종","headquarter":"제11교구","founded":719,"highlight":"신라 대표 미륵·아미타불. 토함산 동쪽.","programs":["당일형","경주 답사"]},
    {"id":"namyongsa","name_ko":"분황사","name_en":"Bunhwangsa","city":"경주","sido":"경상북도","address":"경북 경주시 분황로 94-11","lat":35.8389,"lng":129.2294,"order":"대한불교조계종","headquarter":"제11교구","founded":634,"highlight":"신라 분황사. 모전석탑 국보.","programs":["당일형","경주 도심"]},
    {"id":"bohwasa","name_ko":"보문사","name_en":"Bomunsa","city":"강화","sido":"인천광역시","address":"인천 강화군 삼산면 보문사길 44","lat":37.6822,"lng":126.3636,"order":"대한불교조계종","headquarter":"제2교구 말사","founded":635,"highlight":"한국 3대 관음성지. 석모도. 해수관음.","programs":["체험형","해수관음","순례"]},
    {"id":"jeondeungsa","name_ko":"전등사","name_en":"Jeondeungsa","city":"강화","sido":"인천광역시","address":"인천 강화군 길상면 전등사로 37-41","lat":37.6483,"lng":126.4836,"order":"대한불교조계종","headquarter":"제3교구 말사","founded":381,"highlight":"고구려 사찰 - 한국 최고 사찰 추정. 강화 정족산성.","programs":["체험형","역사 답사","휴식형"]},
    {"id":"yongjusa","name_ko":"용주사","name_en":"Yongjusa","city":"화성","sido":"경기도","address":"경기 화성시 송산동 188","lat":37.2089,"lng":127.0067,"order":"대한불교조계종","headquarter":"제2교구 본사","founded":854,"highlight":"정조대왕이 사도세자 명복 위해 중창. 효(孝)의 사찰.","programs":["체험형","효 문화","휴식"]},
    {"id":"sinheungsa","name_ko":"신흥사","name_en":"Sinheungsa","city":"속초","sido":"강원특별자치도","address":"강원 속초시 설악산로 1137","lat":38.1664,"lng":128.4933,"order":"대한불교조계종","headquarter":"제3교구 본사","founded":653,"highlight":"설악산 입구. 설악 등산·관광 결합.","programs":["체험형","설악산","외국인"]},
    {"id":"baekdamsa","name_ko":"백담사","name_en":"Baekdamsa","city":"인제","sido":"강원특별자치도","address":"강원 인제군 북면 백담로 746","lat":38.1719,"lng":128.3658,"order":"대한불교조계종","headquarter":"제3교구 말사","founded":647,"highlight":"만해 한용운 출가 사찰. 백담계곡.","programs":["체험형","만해 학습","계곡"]},
    {"id":"naksansa","name_ko":"낙산사","name_en":"Naksansa","city":"양양","sido":"강원특별자치도","address":"강원 양양군 강현면 낙산사로 100","lat":38.1247,"lng":128.6303,"order":"대한불교조계종","headquarter":"제3교구 말사","founded":671,"highlight":"한국 3대 관음성지. 해수관음·홍련암. 동해 일출.","programs":["체험형","해수관음","일출"]},
    {"id":"woljeongsa","name_ko":"월정사","name_en":"Woljeongsa","city":"평창","sido":"강원특별자치도","address":"강원 평창군 진부면 오대산로 374-8","lat":37.7286,"lng":128.5919,"order":"대한불교조계종","headquarter":"제4교구 본사","founded":643,"highlight":"오대산 본찰. 전나무 숲길. 팔각구층석탑 국보.","programs":["체험형","전나무 숲","사찰음식"]},
    {"id":"sangwonsa","name_ko":"상원사","name_en":"Sangwonsa","city":"평창","sido":"강원특별자치도","address":"강원 평창군 진부면","lat":37.7611,"lng":128.5722,"order":"대한불교조계종","headquarter":"제4교구 말사","founded":705,"highlight":"오대산 깊은 곳. 적멸보궁. 동종 국보.","programs":["휴식형","적멸보궁"]},
    {"id":"guryongsa","name_ko":"구룡사","name_en":"Guryongsa","city":"원주","sido":"강원특별자치도","address":"강원 원주시 소초면 구룡사로 500","lat":37.4233,"lng":127.9550,"order":"대한불교조계종","headquarter":"제4교구 말사","founded":668,"highlight":"치악산 본찰. 등산 결합.","programs":["체험형","치악산"]},
    {"id":"geonbongsa","name_ko":"건봉사","name_en":"Geonbongsa","city":"고성","sido":"강원특별자치도","address":"강원 고성군 거진읍 건봉사로 723","lat":38.4128,"lng":128.4178,"order":"대한불교조계종","headquarter":"제3교구","founded":520,"highlight":"DMZ 인근. 분단 전 한국 최대 사찰.","programs":["체험형","DMZ","역사"]},
    {"id":"mangkyungsansa","name_ko":"망경산사","name_en":"Manggyeongsa","city":"영월","sido":"강원특별자치도","address":"강원 영월군 김삿갓면","lat":37.0731,"lng":128.5567,"order":"대한불교조계종","headquarter":"제4교구","founded":650,"highlight":"영월 산속 사찰. 단종 유적 결합.","programs":["휴식형","단종 답사"]},
    {"id":"magoksa","name_ko":"마곡사","name_en":"Magoksa","city":"공주","sido":"충청남도","address":"충남 공주시 사곡면 마곡사로 966","lat":36.5589,"lng":126.9742,"order":"대한불교조계종","headquarter":"제6교구 본사","founded":640,"highlight":"백범 김구 출가지. UNESCO 산사. 봄 벚꽃 명소.","programs":["체험형","백범 학습","계룡산"]},
    {"id":"sudeoksa","name_ko":"수덕사","name_en":"Sudeoksa","city":"예산","sido":"충청남도","address":"충남 예산군 덕산면 수덕사안길 79","lat":36.6608,"lng":126.6172,"order":"대한불교조계종","headquarter":"제7교구 본사","founded":600,"highlight":"덕숭총림. 일엽스님·만공스님 본거지. 비구니 본사.","programs":["체험형","비구니","간화선"]},
    {"id":"gapsa","name_ko":"갑사","name_en":"Gapsa","city":"공주","sido":"충청남도","address":"충남 공주시 계룡면 갑사로 567-3","lat":36.3692,"lng":127.2336,"order":"대한불교조계종","headquarter":"제6교구 말사","founded":420,"highlight":"계룡산 본찰. 가을 단풍 명소.","programs":["체험형","계룡산"]},
    {"id":"donghaksa","name_ko":"동학사","name_en":"Donghaksa","city":"공주","sido":"충청남도","address":"충남 공주시 반포면 동학사1로 462","lat":36.3406,"lng":127.2825,"order":"대한불교조계종","headquarter":"제6교구","founded":724,"highlight":"비구니 강원. 계룡산 동쪽.","programs":["체험형","비구니"]},
    {"id":"beopjusa","name_ko":"법주사","name_en":"Beopjusa","city":"보은","sido":"충청북도","address":"충북 보은군 속리산면 법주사로 405","lat":36.5417,"lng":127.8333,"order":"대한불교조계종","headquarter":"제5교구 본사","founded":553,"highlight":"속리산 본찰. 미륵대불. UNESCO 산사.","programs":["체험형","미륵","속리산"]},
    {"id":"guinsa","name_ko":"구인사","name_en":"Guinsa","city":"단양","sido":"충청북도","address":"충북 단양군 영춘면 구인사길 73","lat":37.0586,"lng":128.4853,"order":"대한불교천태종","headquarter":"총본산","founded":1945,"highlight":"천태종 총본산. 한국 최대 단일 사찰 단지.","programs":["체험형","천태종","대규모"]},
    {"id":"gwangjesa","name_ko":"광제사","name_en":"Gwangjesa","city":"세종","sido":"세종특별자치시","address":"세종 부강면","lat":36.4564,"lng":127.3489,"order":"대한불교조계종","headquarter":"세종","founded":1995,"highlight":"세종시 사찰.","programs":["당일형"]},
    {"id":"geumsansa","name_ko":"금산사","name_en":"Geumsansa","city":"김제","sido":"전라북도","address":"전북 김제시 금산면 모악15길 1","lat":35.7194,"lng":127.0228,"order":"대한불교조계종","headquarter":"제17교구 본사","founded":600,"highlight":"미륵사상의 본거지. 모악산.","programs":["체험형","미륵","모악산"]},
    {"id":"seonunsa","name_ko":"선운사","name_en":"Seonunsa","city":"고창","sido":"전라북도","address":"전북 고창군 아산면 선운사로 250","lat":35.4869,"lng":126.6042,"order":"대한불교조계종","headquarter":"제24교구 말사","founded":577,"highlight":"고창 동백·꽃무릇 명소. 가을 핫스팟.","programs":["체험형","꽃무릇","고창"]},
    {"id":"naesosa","name_ko":"내소사","name_en":"Naesosa","city":"부안","sido":"전라북도","address":"전북 부안군 진서면 내소사로 243","lat":35.6253,"lng":126.5825,"order":"대한불교조계종","headquarter":"제24교구","founded":633,"highlight":"전나무 숲. 변산반도. 곰소만 결합.","programs":["체험형","전나무 숲","해안"]},
    {"id":"gaeamsa","name_ko":"개암사","name_en":"Gaeamsa","city":"부안","sido":"전라북도","address":"전북 부안군 상서면 개암로 248","lat":35.6597,"lng":126.6997,"order":"대한불교조계종","headquarter":"제24교구","founded":634,"highlight":"부안 변산. 우금산 자락.","programs":["휴식형","변산"]},
    {"id":"geumdang","name_ko":"금당사","name_en":"Geumdangsa","city":"진안","sido":"전라북도","address":"전북 진안군 마령면 마이산남로 217","lat":35.7644,"lng":127.4042,"order":"대한불교조계종","headquarter":"제17교구","founded":650,"highlight":"마이산 자락. 진안 명소.","programs":["당일형","마이산"]},
    {"id":"gwijeongsa","name_ko":"귀정사","name_en":"Gwijeongsa","city":"남원","sido":"전라북도","address":"전북 남원시 산내면","lat":35.4117,"lng":127.5694,"order":"대한불교조계종","headquarter":"제17교구","founded":562,"highlight":"지리산 자락. 남원.","programs":["체험형","지리산"]},
    {"id":"hwaeomsa","name_ko":"화엄사","name_en":"Hwaeomsa","city":"구례","sido":"전라남도","address":"전남 구례군 마산면 화엄사로 539","lat":35.2456,"lng":127.4836,"order":"대한불교조계종","headquarter":"제19교구 본사","founded":544,"highlight":"지리산 본찰. 화엄사상. UNESCO 산사.","programs":["체험형","화엄","지리산"]},
    {"id":"ssanggyesa","name_ko":"쌍계사","name_en":"Ssanggyesa","city":"하동","sido":"경상남도","address":"경남 하동군 화개면 쌍계사길 59","lat":35.2422,"lng":127.6306,"order":"대한불교조계종","headquarter":"제13교구 본사","founded":723,"highlight":"지리산 자락. 차문화 본거지. 6조 혜능 진영.","programs":["체험형","차문화","지리산"]},
    {"id":"daeheungsa","name_ko":"대흥사","name_en":"Daeheungsa","city":"해남","sido":"전라남도","address":"전남 해남군 삼산면 대흥사길 400","lat":34.4811,"lng":126.6178,"order":"대한불교조계종","headquarter":"제22교구 본사","founded":426,"highlight":"두륜산 본찰. UNESCO 산사. 차문화·서산대사.","programs":["체험형","차문화","두륜산"]},
    {"id":"doabsa","name_ko":"도갑사","name_en":"Dogapsa","city":"영암","sido":"전라남도","address":"전남 영암군 군서면 도갑사로 306","lat":34.7558,"lng":126.6481,"order":"대한불교조계종","headquarter":"제22교구 말사","founded":880,"highlight":"월출산 자락. 도선국사 창건.","programs":["체험형","월출산"]},
    {"id":"bulgapsa","name_ko":"불갑사","name_en":"Bulgapsa","city":"영광","sido":"전라남도","address":"전남 영광군 불갑면 불갑사로 450","lat":35.2447,"lng":126.5247,"order":"대한불교조계종","headquarter":"제18교구","founded":384,"highlight":"한국 최초 불교 도래지. 백제 불교 시초.","programs":["체험형","백제 불교","꽃무릇"]},
    {"id":"baekyangsa","name_ko":"백양사","name_en":"Baekyangsa","city":"장성","sido":"전라남도","address":"전남 장성군 북하면 백양로 1239","lat":35.4583,"lng":126.8956,"order":"대한불교조계종","headquarter":"제18교구 본사","founded":632,"highlight":"백암산 본찰. 가을 단풍.","programs":["체험형","백암산","단풍"]},
    {"id":"musangsa","name_ko":"무상사","name_en":"Musangsa","city":"논산","sido":"충청남도","address":"충남 논산시","lat":36.1986,"lng":127.0961,"order":"대한불교조계종","headquarter":"제6교구","founded":1986,"highlight":"숭산스님 미국 제자 한국 본찰. 국제 참선 본거지.","programs":["국제선","영어","외국인"]},
    {"id":"unmunsa","name_ko":"운문사","name_en":"Unmunsa","city":"청도","sido":"경상북도","address":"경북 청도군 운문면 운문사길 264","lat":35.6864,"lng":128.9572,"order":"대한불교조계종","headquarter":"제11교구","founded":560,"highlight":"비구니 강원. 한국 최대 비구니 사찰.","programs":["체험형","비구니"]},
    {"id":"jikjisa","name_ko":"직지사","name_en":"Jikjisa","city":"김천","sido":"경상북도","address":"경북 김천시 대항면 직지사길 95","lat":36.1267,"lng":128.0072,"order":"대한불교조계종","headquarter":"제8교구 본사","founded":418,"highlight":"황악산 자락. 사명대사 본거지.","programs":["체험형","사명대사"]},
    {"id":"donghwasa","name_ko":"동화사","name_en":"Donghwasa","city":"대구","sido":"대구광역시","address":"대구 동구 동화사1길 1","lat":35.9836,"lng":128.6975,"order":"대한불교조계종","headquarter":"제9교구 본사","founded":493,"highlight":"팔공산 본찰. 통일대불 33m.","programs":["체험형","팔공산"]},
    {"id":"gouunsa","name_ko":"고운사","name_en":"Gounsa","city":"의성","sido":"경상북도","address":"경북 의성군 단촌면 고운사길 415","lat":36.3464,"lng":128.7456,"order":"대한불교조계종","headquarter":"제16교구 본사","founded":681,"highlight":"의성 산속 사찰. 고운 최치원.","programs":["체험형","최치원"]},
    {"id":"buseoksa","name_ko":"부석사","name_en":"Buseoksa","city":"영주","sido":"경상북도","address":"경북 영주시 부석면 부석사로 345","lat":36.9897,"lng":128.7019,"order":"대한불교조계종","headquarter":"제16교구 말사","founded":676,"highlight":"무량수전 국보. UNESCO 산사. 의상대사.","programs":["체험형","의상","무량수전"]},
    {"id":"buseokyongmoonsa","name_ko":"용문사","name_en":"Yongmunsa","city":"예천","sido":"경상북도","address":"경북 예천군 용문면","lat":36.7811,"lng":128.4517,"order":"대한불교조계종","headquarter":"제8교구","founded":870,"highlight":"천년 은행나무. 신라.","programs":["체험형","은행나무"]},
    {"id":"birogungrim","name_ko":"비로궁림 영국사","name_en":"Yeonggug-sa","city":"영동","sido":"충청북도","address":"충북 영동군 양산면","lat":36.1781,"lng":127.8417,"order":"대한불교조계종","headquarter":"제5교구","founded":1093,"highlight":"천년 은행나무. 양산팔경.","programs":["휴식형","계곡"]},
    {"id":"jeungbongsa","name_ko":"증심사","name_en":"Jeungsimsa","city":"광주","sido":"광주광역시","address":"광주 동구 증심사길 177","lat":35.1336,"lng":126.9803,"order":"대한불교조계종","headquarter":"제22교구","founded":860,"highlight":"무등산 본찰. 광주 도심 접근성.","programs":["체험형","무등산"]},
    {"id":"baegunsa","name_ko":"백운사","name_en":"Baegunsa","city":"광양","sido":"전라남도","address":"전남 광양시 옥룡면","lat":35.0792,"lng":127.6708,"order":"대한불교조계종","headquarter":"제19교구","founded":730,"highlight":"백운산 자락. 광양매화 결합.","programs":["체험형","백운산"]},
    {"id":"hwaamsa","name_ko":"화엄사 백련암","name_en":"Hwaeomsa Baekryeonam","city":"구례","sido":"전라남도","address":"전남 구례군 화엄사 부속","lat":35.2461,"lng":127.4842,"order":"대한불교조계종","headquarter":"제19교구","founded":1880,"highlight":"화엄사 부속 암자. 깊은 산속.","programs":["휴식형","간화선"]},
    {"id":"silsangsa","name_ko":"실상사","name_en":"Silsangsa","city":"남원","sido":"전라북도","address":"전북 남원시 산내면 입석길 94-129","lat":35.4044,"lng":127.5503,"order":"대한불교조계종","headquarter":"제17교구 말사","founded":828,"highlight":"한국 최초 선종 사찰. 지리산 자락.","programs":["체험형","선종","지리산"]},
    {"id":"baegyangsa-gu","name_ko":"구암사","name_en":"Guamsa","city":"순창","sido":"전라북도","address":"전북 순창군 복흥면","lat":35.4061,"lng":126.9742,"order":"대한불교조계종","headquarter":"제18교구","founded":679,"highlight":"순창 산속.","programs":["휴식형"]},
    {"id":"nungasa","name_ko":"능가사","name_en":"Neunggasa","city":"고흥","sido":"전라남도","address":"전남 고흥군 점암면 팔영로 4747","lat":34.6856,"lng":127.4856,"order":"대한불교조계종","headquarter":"제22교구","founded":419,"highlight":"팔영산 자락. 고흥.","programs":["체험형","팔영산"]},
    {"id":"daewonsa-yeongam","name_ko":"대원사(보성)","name_en":"Daewonsa Boseong","city":"보성","sido":"전라남도","address":"전남 보성군 문덕면 죽산리","lat":34.8794,"lng":127.2447,"order":"대한불교조계종","headquarter":"제21교구","founded":503,"highlight":"보성 녹차 결합.","programs":["체험형","녹차"]},
    {"id":"daewonsa-sancheong","name_ko":"대원사(산청)","name_en":"Daewonsa Sancheong","city":"산청","sido":"경상남도","address":"경남 산청군 삼장면","lat":35.4153,"lng":127.8861,"order":"대한불교조계종","headquarter":"제12교구","founded":548,"highlight":"지리산 자락. 비구니.","programs":["체험형","비구니","지리산"]},
    {"id":"dorimsa-gokseong","name_ko":"도림사","name_en":"Dorimsa","city":"곡성","sido":"전라남도","address":"전남 곡성군 곡성읍","lat":35.2856,"lng":127.2914,"order":"대한불교조계종","headquarter":"제19교구","founded":660,"highlight":"곡성 도림사. 동리산.","programs":["휴식형"]},
    {"id":"dorisa-gumi","name_ko":"도리사","name_en":"Dorisa","city":"구미","sido":"경상북도","address":"경북 구미시 해평면","lat":36.2667,"lng":128.4192,"order":"대한불교조계종","headquarter":"제8교구","founded":417,"highlight":"한국 최초 신라 불교 사찰.","programs":["체험형","신라 불교"]},
    {"id":"daesungsa","name_ko":"대승사","name_en":"Daeseungsa","city":"문경","sido":"경상북도","address":"경북 문경시 산북면 대승사길 283","lat":36.7639,"lng":128.2056,"order":"대한불교조계종","headquarter":"제8교구","founded":587,"highlight":"문경 산속.","programs":["휴식형"]},
    {"id":"hyeyeongam","name_ko":"혜원암","name_en":"Hyewonam","city":"양산","sido":"경상남도","address":"경남 양산시 통도사 부속","lat":35.4894,"lng":129.0686,"order":"대한불교조계종","headquarter":"통도사 부속","founded":1850,"highlight":"통도사 부속 비구니 암자.","programs":["휴식형","비구니"]},
    {"id":"geumsuam","name_ko":"금수암","name_en":"Geumsuam","city":"산청","sido":"경상남도","address":"경남 산청군","lat":35.3933,"lng":127.8694,"order":"대한불교조계종","headquarter":"제12교구","founded":1610,"highlight":"지리산 비구니 암자.","programs":["휴식형","비구니"]},
    {"id":"naewonjeongsa","name_ko":"내원정사","name_en":"Naewonjeongsa","city":"부산","sido":"부산광역시","address":"부산 서구","lat":35.1064,"lng":129.0289,"order":"대한불교조계종","headquarter":"부산","founded":1973,"highlight":"부산 도심 사찰.","programs":["당일형"]},
    {"id":"beomeosa","name_ko":"범어사","name_en":"Beomeosa","city":"부산","sido":"부산광역시","address":"부산 금정구 범어사로 250","lat":35.2839,"lng":129.0664,"order":"대한불교조계종","headquarter":"제14교구 본사","founded":678,"highlight":"부산 본찰. 금정산.","programs":["체험형","금정산"]},
    {"id":"haedongyongkungsa","name_ko":"해동용궁사","name_en":"Haedong Yonggungsa","city":"부산","sido":"부산광역시","address":"부산 기장군 기장읍 용궁길 86","lat":35.1881,"lng":129.2231,"order":"대한불교조계종","headquarter":"부산","founded":1376,"highlight":"바닷가 사찰. 한국 3대 관음성지.","programs":["당일형","해안"]},
    {"id":"daejeoksa","name_ko":"대적사","name_en":"Daejeoksa","city":"포항","sido":"경상북도","address":"경북 포항시 북구","lat":36.0883,"lng":129.3692,"order":"대한불교조계종","headquarter":"제11교구","founded":700,"highlight":"포항 사찰.","programs":["당일형"]},
    {"id":"bogyeongsa","name_ko":"보경사","name_en":"Bogyeongsa","city":"포항","sido":"경상북도","address":"경북 포항시 북구 송라면 보경로 523","lat":36.2456,"lng":129.3492,"order":"대한불교조계종","headquarter":"제11교구","founded":602,"highlight":"내연산 자락. 12폭포.","programs":["체험형","12폭포"]},
    {"id":"yeolmeunamri","name_ko":"열매암","name_en":"Yeolmeam","city":"안동","sido":"경상북도","address":"경북 안동시","lat":36.5667,"lng":128.7833,"order":"대한불교조계종","headquarter":"제16교구","founded":1750,"highlight":"안동 산속 암자.","programs":["휴식형"]},
    {"id":"haedongam","name_ko":"해동암","name_en":"Haedongam","city":"고성","sido":"강원특별자치도","address":"강원 고성군","lat":38.3717,"lng":128.4806,"order":"대한불교조계종","headquarter":"제3교구","founded":1820,"highlight":"동해안 산속.","programs":["휴식형","동해안"]},
    {"id":"gukrakam","name_ko":"극락암","name_en":"Geungnakam","city":"양산","sido":"경상남도","address":"경남 양산시 하북면 통도사 부속","lat":35.4933,"lng":129.0617,"order":"대한불교조계종","headquarter":"통도사 부속","founded":1500,"highlight":"통도사 부속 암자. 경봉스님 본거지.","programs":["체험형","경봉"]},
    {"id":"oeam","name_ko":"외암","name_en":"Oeam","city":"양산","sido":"경상남도","address":"경남 양산시 하북면","lat":35.4978,"lng":129.0594,"order":"대한불교조계종","headquarter":"통도사 부속","founded":1750,"highlight":"통도사 부속.","programs":["휴식형"]},
    {"id":"jeungjisa","name_ko":"증지사","name_en":"Jeungjisa","city":"고양","sido":"경기도","address":"경기 고양시 덕양구","lat":37.6919,"lng":126.8403,"order":"대한불교조계종","headquarter":"제2교구","founded":1700,"highlight":"북한산 자락. 서울 인접.","programs":["휴식형","북한산"]},
    {"id":"daewonsa-gapyeong","name_ko":"대원사(가평)","name_en":"Daewonsa Gapyeong","city":"가평","sido":"경기도","address":"경기 가평군 청평면","lat":37.7314,"lng":127.3942,"order":"대한불교조계종","headquarter":"제25교구","founded":1700,"highlight":"청평호 인접.","programs":["체험형","호반"]},
    {"id":"gwanaksa-anyang","name_ko":"관악사","name_en":"Gwanaksa","city":"안양","sido":"경기도","address":"경기 안양시 동안구","lat":37.4339,"lng":126.9508,"order":"대한불교조계종","headquarter":"제25교구","founded":1100,"highlight":"관악산 자락. 수도권 접근.","programs":["당일형","관악산"]},
    {"id":"sinwonsa-anseong","name_ko":"신원사","name_en":"Sinwonsa","city":"안성","sido":"경기도","address":"경기 안성시 칠장로","lat":37.0289,"lng":127.2942,"order":"대한불교조계종","headquarter":"제2교구","founded":1100,"highlight":"칠장사 결합.","programs":["휴식형"]},
    {"id":"chiljangsa","name_ko":"칠장사","name_en":"Chiljangsa","city":"안성","sido":"경기도","address":"경기 안성시 죽산면 칠장로 399-18","lat":37.0231,"lng":127.4322,"order":"대한불교조계종","headquarter":"제2교구","founded":636,"highlight":"임꺽정 출가지.","programs":["체험형","역사"]},
    {"id":"daegwangsa-suwon","name_ko":"대광사(성남)","name_en":"Daegwangsa Seongnam","city":"성남","sido":"경기도","address":"경기 성남시 분당구","lat":37.3489,"lng":127.0928,"order":"대한불교천태종","headquarter":"천태종","founded":2000,"highlight":"분당 도심 천태종 대규모.","programs":["당일형","천태종"]},
    {"id":"daegwangsa-changwon","name_ko":"대광사(창원)","name_en":"Daegwangsa Changwon","city":"창원","sido":"경상남도","address":"경남 창원시 의창구","lat":35.2386,"lng":128.5919,"order":"대한불교조계종","headquarter":"제14교구","founded":1850,"highlight":"창원 도심.","programs":["당일형"]},
    {"id":"geumgangjeongsa","name_ko":"금강정사","name_en":"Geumgangjeongsa","city":"광명","sido":"경기도","address":"경기 광명시","lat":37.4781,"lng":126.8722,"order":"대한불교조계종","headquarter":"제25교구","founded":1980,"highlight":"수도권 사찰.","programs":["당일형"]},
    {"id":"yongmunsa-yp","name_ko":"용문사(양평)","name_en":"Yongmunsa Yangpyeong","city":"양평","sido":"경기도","address":"경기 양평군 용문면 신점리","lat":37.5394,"lng":127.5961,"order":"대한불교조계종","headquarter":"제25교구 본사","founded":913,"highlight":"천년 은행나무. 양평.","programs":["체험형","은행나무"]},
    {"id":"bowonsa","name_ko":"보원사","name_en":"Bowonsa","city":"서산","sido":"충청남도","address":"충남 서산시 운산면","lat":36.7322,"lng":126.6611,"order":"대한불교조계종","headquarter":"제7교구","founded":850,"highlight":"백제 불교. 서산 마애여래삼존상 인접.","programs":["체험형","백제"]},
    {"id":"yongjeon","name_ko":"용주사 부속","name_en":"Yongju Branch","city":"화성","sido":"경기도","address":"경기 화성시 송산동","lat":37.2094,"lng":127.0072,"order":"대한불교조계종","headquarter":"제2교구","founded":1790,"highlight":"용주사 부속.","programs":["체험형"]},
    {"id":"jeondangsa","name_ko":"전등사 정족산성","name_en":"Jeondeungsa Jeokjok","city":"강화","sido":"인천광역시","address":"인천 강화군 길상면","lat":37.6486,"lng":126.4833,"order":"대한불교조계종","headquarter":"제3교구","founded":381,"highlight":"강화 정족산성 내부.","programs":["체험형","산성"]},
    {"id":"borisamr","name_ko":"보리사","name_en":"Borisa","city":"제천","sido":"충청북도","address":"충북 제천시 봉양읍","lat":37.1339,"lng":128.1989,"order":"대한불교조계종","headquarter":"제5교구","founded":1300,"highlight":"제천 산속.","programs":["휴식형"]},
    {"id":"keumgangam","name_ko":"금강암","name_en":"Geumgangam","city":"단양","sido":"충청북도","address":"충북 단양군","lat":36.9858,"lng":128.3667,"order":"대한불교조계종","headquarter":"제5교구","founded":1620,"highlight":"단양 도담삼봉 인근.","programs":["휴식형"]},
    {"id":"borammsa","name_ko":"보람사","name_en":"Boramsa","city":"여수","sido":"전라남도","address":"전남 여수시","lat":34.7611,"lng":127.6622,"order":"대한불교조계종","headquarter":"제19교구","founded":1700,"highlight":"여수 사찰.","programs":["당일형","해안"]},
    {"id":"baeksamsa","name_ko":"백련사(강진)","name_en":"Baengnyeonsa Gangjin","city":"강진","sido":"전라남도","address":"전남 강진군 도암면","lat":34.6856,"lng":126.7892,"order":"대한불교조계종","headquarter":"제22교구","founded":839,"highlight":"강진 다산초당 인접.","programs":["체험형","다산"]},
    {"id":"daeryunsa","name_ko":"대륜사","name_en":"Daeryunsa","city":"순천","sido":"전라남도","address":"전남 순천시 송광면","lat":35.0017,"lng":127.2922,"order":"대한불교조계종","headquarter":"제21교구","founded":1700,"highlight":"송광사 부속.","programs":["휴식형"]},
    {"id":"unmunsayulwon","name_ko":"운문사 율원","name_en":"Unmun Yulwon","city":"청도","sido":"경상북도","address":"경북 청도군 운문면","lat":35.6864,"lng":128.9594,"order":"대한불교조계종","headquarter":"제11교구","founded":600,"highlight":"운문사 비구니 율원.","programs":["체험형","비구니"]},
    {"id":"baengnyeonam","name_ko":"백련암","name_en":"Baengnyeonam","city":"합천","sido":"경상남도","address":"경남 합천군 해인사 부속","lat":35.8019,"lng":128.0961,"order":"대한불교조계종","headquarter":"해인사 부속","founded":900,"highlight":"성철스님 본거지. 해인사 부속.","programs":["체험형","성철"]},
    {"id":"shimwonsa","name_ko":"심원사","name_en":"Simwonsa","city":"포천","sido":"경기도","address":"경기 포천시 신북면","lat":38.0386,"lng":127.2369,"order":"대한불교조계종","headquarter":"제25교구","founded":840,"highlight":"포천 산속.","programs":["휴식형"]},
    {"id":"jeongtosa","name_ko":"정토사","name_en":"Jeongtosa","city":"고양","sido":"경기도","address":"경기 고양시","lat":37.6789,"lng":126.7531,"order":"대한불교조계종","headquarter":"제25교구","founded":1320,"highlight":"고양 산속.","programs":["휴식형"]},
    {"id":"chibyeongam","name_ko":"치병암","name_en":"Chibyeongam","city":"양양","sido":"강원특별자치도","address":"강원 양양군","lat":38.0764,"lng":128.6328,"order":"대한불교조계종","headquarter":"제3교구","founded":1880,"highlight":"양양 산속.","programs":["휴식형"]},
    {"id":"hwadeoksa","name_ko":"화엄사 구층암","name_en":"Hwaeomsa Guchungam","city":"구례","sido":"전라남도","address":"전남 구례군 화엄사 부속","lat":35.2447,"lng":127.4847,"order":"대한불교조계종","headquarter":"화엄사 부속","founded":700,"highlight":"화엄사 부속 구층암. 모과나무 기둥.","programs":["휴식형","건축"]},
    {"id":"ssanggyeam","name_ko":"쌍계사 칠불암","name_en":"Ssanggye Chilbulam","city":"하동","sido":"경상남도","address":"경남 하동군 화개면 쌍계사 부속","lat":35.2447,"lng":127.6378,"order":"대한불교조계종","headquarter":"쌍계사 부속","founded":103,"highlight":"가야 김수로왕 일곱 왕자 출가지.","programs":["체험형","가야 불교"]},
    {"id":"sambonsa","name_ko":"삼본사","name_en":"Sambonsa","city":"평택","sido":"경기도","address":"경기 평택시","lat":36.9921,"lng":127.0844,"order":"대한불교조계종","headquarter":"제2교구","founded":1850,"highlight":"평택 도심.","programs":["당일형"]},
    {"id":"jeongisa","name_ko":"정혜사","name_en":"Jeonghyesa","city":"예산","sido":"충청남도","address":"충남 예산군 덕산면 수덕사 부속","lat":36.6589,"lng":126.6178,"order":"대한불교조계종","headquarter":"수덕사 부속","founded":600,"highlight":"수덕사 부속.","programs":["휴식형"]},
    {"id":"jajaeam","name_ko":"자재암","name_en":"Jajaeam","city":"동두천","sido":"경기도","address":"경기 동두천시 상봉암동","lat":37.9389,"lng":127.0606,"order":"대한불교조계종","headquarter":"제25교구","founded":645,"highlight":"소요산 자락.","programs":["체험형","소요산"]},
    {"id":"silleuksa","name_ko":"신륵사","name_en":"Silleuksa","city":"여주","sido":"경기도","address":"경기 여주시 신륵사길 73","lat":37.2967,"lng":127.6394,"order":"대한불교조계종","headquarter":"제2교구","founded":580,"highlight":"남한강변 사찰. 황포돛배.","programs":["체험형","강변","나옹선사"]},
    {"id":"unmuk","name_ko":"운수암","name_en":"Unsuam","city":"청도","sido":"경상북도","address":"경북 청도군 운문면","lat":35.6911,"lng":128.9614,"order":"대한불교조계종","headquarter":"제11교구","founded":1800,"highlight":"운문사 부속.","programs":["휴식형"]},
    {"id":"taegosa","name_ko":"태고사","name_en":"Taegosa","city":"금산","sido":"충청남도","address":"충남 금산군 진산면","lat":36.0892,"lng":127.4961,"order":"대한불교조계종","headquarter":"제6교구","founded":670,"highlight":"대둔산 자락.","programs":["체험형","대둔산"]},
    {"id":"manduksa","name_ko":"만덕사","name_en":"Mandeoksa","city":"부산","sido":"부산광역시","address":"부산 북구 만덕동","lat":35.2197,"lng":129.0214,"order":"대한불교조계종","headquarter":"제14교구","founded":1290,"highlight":"만덕동 도심.","programs":["당일형"]},
    {"id":"hangagae","name_ko":"한가구","name_en":"Hangagu","city":"의성","sido":"경상북도","address":"경북 의성군","lat":36.3464,"lng":128.7531,"order":"대한불교조계종","headquarter":"제16교구","founded":1100,"highlight":"의성 산속.","programs":["휴식형"]},
    {"id":"chukseosa","name_ko":"축서사","name_en":"Chukseosa","city":"봉화","sido":"경상북도","address":"경북 봉화군 물야면","lat":36.9892,"lng":128.7331,"order":"대한불교조계종","headquarter":"제16교구","founded":673,"highlight":"문수산 자락. 봉화.","programs":["체험형","문수산"]},
    {"id":"daeryunsajongtaek","name_ko":"대종사","name_en":"Daejongsa","city":"수원","sido":"경기도","address":"경기 수원시","lat":37.2769,"lng":127.0142,"order":"대한불교조계종","headquarter":"제2교구","founded":1900,"highlight":"수원 도심.","programs":["당일형"]},
    {"id":"jeungjisa-ulju","name_ko":"통도사 자장암","name_en":"Tongdo Jajangam","city":"양산","sido":"경상남도","address":"경남 양산시 통도사 부속","lat":35.4856,"lng":129.0639,"order":"대한불교조계종","headquarter":"통도사 부속","founded":646,"highlight":"통도사 부속 자장암. 자장율사.","programs":["체험형","자장율사"]},
    {"id":"jujang","name_ko":"주장사","name_en":"Jujangsa","city":"의왕","sido":"경기도","address":"경기 의왕시","lat":37.3494,"lng":126.9683,"order":"대한불교조계종","headquarter":"제25교구","founded":1750,"highlight":"수도권.","programs":["당일형"]},
    {"id":"banglyongsa","name_ko":"백룡사","name_en":"Baengnyongsa","city":"통영","sido":"경상남도","address":"경남 통영시","lat":34.8542,"lng":128.4322,"order":"대한불교조계종","headquarter":"제13교구","founded":1700,"highlight":"통영 한려수도.","programs":["당일형","해안"]},
    {"id":"yongcheonsa","name_ko":"용천사","name_en":"Yongcheonsa","city":"함평","sido":"전라남도","address":"전남 함평군 해보면","lat":35.0497,"lng":126.5378,"order":"대한불교조계종","headquarter":"제18교구","founded":600,"highlight":"꽃무릇 명소.","programs":["체험형","꽃무릇"]},
    {"id":"sangwonsa-chungwon","name_ko":"상원사(원주)","name_en":"Sangwonsa Wonju","city":"원주","sido":"강원특별자치도","address":"강원 원주시","lat":37.2733,"lng":127.9831,"order":"대한불교조계종","headquarter":"제4교구","founded":665,"highlight":"치악산 자락.","programs":["휴식형"]},
    {"id":"baekheungsa","name_ko":"백흥암","name_en":"Baekheungam","city":"영천","sido":"경상북도","address":"경북 영천시 청통면 은해사 부속","lat":36.0628,"lng":128.8131,"order":"대한불교조계종","headquarter":"은해사 부속","founded":1500,"highlight":"은해사 부속 비구니. 단청 일품.","programs":["체험형","비구니"]},
    {"id":"eunhaesa","name_ko":"은해사","name_en":"Eunhaesa","city":"영천","sido":"경상북도","address":"경북 영천시 청통면 청통로 951-7","lat":36.0589,"lng":128.8086,"order":"대한불교조계종","headquarter":"제10교구 본사","founded":809,"highlight":"팔공산 자락. 백흥암·운부암.","programs":["체험형","팔공산"]},
    {"id":"unbuam","name_ko":"운부암","name_en":"Unbuam","city":"영천","sido":"경상북도","address":"경북 영천시 청통면 은해사 부속","lat":36.0639,"lng":128.8147,"order":"대한불교조계종","headquarter":"은해사 부속","founded":711,"highlight":"은해사 부속.","programs":["휴식형"]},
    {"id":"baegyangsa-2","name_ko":"백양사 천진암","name_en":"Baekyang Cheonjinam","city":"장성","sido":"전라남도","address":"전남 장성군 백양사 부속","lat":35.4561,"lng":126.8967,"order":"대한불교조계종","headquarter":"백양사 부속","founded":1700,"highlight":"백양사 부속.","programs":["휴식형"]},
    {"id":"daeryongsa","name_ko":"대룡사","name_en":"Daeryongsa","city":"성주","sido":"경상북도","address":"경북 성주군","lat":35.9214,"lng":128.2864,"order":"대한불교조계종","headquarter":"제9교구","founded":1100,"highlight":"성주 산속.","programs":["휴식형"]},
    {"id":"chongnimsa","name_ko":"총림사","name_en":"Chongnimsa","city":"양산","sido":"경상남도","address":"경남 양산시 통도사","lat":35.4892,"lng":129.0664,"order":"대한불교조계종","headquarter":"통도사","founded":700,"highlight":"통도사 부속 강원.","programs":["체험형"]},
    {"id":"manhae-3","name_ko":"만해마을","name_en":"Manhae Village","city":"인제","sido":"강원특별자치도","address":"강원 인제군 북면 만해마을길 17","lat":38.1672,"lng":128.3661,"order":"백담사 부속","headquarter":"백담사 부속","founded":2003,"highlight":"만해 한용운 문학·사상 마을.","programs":["체험형","만해 학습"]},
    {"id":"daeyeoksa","name_ko":"대역사","name_en":"Daeyeoksa","city":"고양","sido":"경기도","address":"경기 고양시 일산동구","lat":37.6608,"lng":126.8331,"order":"대한불교조계종","headquarter":"제25교구","founded":1990,"highlight":"일산 도심.","programs":["당일형"]},
    {"id":"deongnyongsa","name_ko":"덕룡사","name_en":"Deongnyongsa","city":"안동","sido":"경상북도","address":"경북 안동시","lat":36.5489,"lng":128.6386,"order":"대한불교조계종","headquarter":"제16교구","founded":1500,"highlight":"안동 산속.","programs":["휴식형"]},
    {"id":"jinjeongsa","name_ko":"진전사","name_en":"Jinjeonsa","city":"양양","sido":"강원특별자치도","address":"강원 양양군 강현면","lat":38.0633,"lng":128.6256,"order":"대한불교조계종","headquarter":"제3교구","founded":650,"highlight":"양양 산속. 동해 인접.","programs":["체험형","동해"]},
    {"id":"chiljungsa","name_ko":"칠중사","name_en":"Chiljungsa","city":"양주","sido":"경기도","address":"경기 양주시","lat":37.7894,"lng":127.0497,"order":"대한불교조계종","headquarter":"제25교구","founded":1100,"highlight":"양주 산속.","programs":["휴식형"]},
    {"id":"sungshim","name_ko":"성심암","name_en":"Seongsimam","city":"안동","sido":"경상북도","address":"경북 안동시","lat":36.5722,"lng":128.7297,"order":"대한불교조계종","headquarter":"제16교구","founded":1300,"highlight":"안동 산속 비구니.","programs":["휴식형","비구니"]},
    {"id":"baekheunan","name_ko":"백흥사","name_en":"Baekheungsa","city":"의왕","sido":"경기도","address":"경기 의왕시","lat":37.3492,"lng":126.9694,"order":"대한불교조계종","headquarter":"제2교구","founded":1850,"highlight":"수도권.","programs":["당일형"]},
    {"id":"jenjong","name_ko":"전등사 죽림암","name_en":"Jeondeung Jukrimam","city":"강화","sido":"인천광역시","address":"인천 강화군 길상면","lat":37.6489,"lng":126.4856,"order":"대한불교조계종","headquarter":"전등사 부속","founded":900,"highlight":"전등사 부속.","programs":["휴식형"]},
    {"id":"chongnimsa-c","name_ko":"청림사","name_en":"Cheongnimsa","city":"여수","sido":"전라남도","address":"전남 여수시","lat":34.7642,"lng":127.6597,"order":"대한불교조계종","headquarter":"제19교구","founded":1800,"highlight":"여수 도심.","programs":["당일형"]},
    {"id":"manggyeongam","name_ko":"망경암","name_en":"Manggyeongam","city":"안동","sido":"경상북도","address":"경북 안동시","lat":36.5933,"lng":128.7242,"order":"대한불교조계종","headquarter":"제16교구","founded":1500,"highlight":"안동 산속.","programs":["휴식형"]},
    {"id":"bongseonsa","name_ko":"봉선사","name_en":"Bongseonsa","city":"남양주","sido":"경기도","address":"경기 남양주시 진접읍 봉선사길 32","lat":37.6839,"lng":127.2589,"order":"대한불교조계종","headquarter":"제25교구 본사","founded":969,"highlight":"광릉수목원 인접. 세조의 능인 광릉 사찰.","programs":["체험형","세조 광릉"]},
    {"id":"yongmunsa-gp","name_ko":"용문사(양평) 부속","name_en":"Yongmunsa Branch","city":"양평","sido":"경기도","address":"경기 양평군 용문면","lat":37.5414,"lng":127.5944,"order":"대한불교조계종","headquarter":"용문사 부속","founded":1100,"highlight":"용문사 부속.","programs":["휴식형"]},
    {"id":"baekhung","name_ko":"백흥암(영천)","name_en":"Baekheung","city":"영천","sido":"경상북도","address":"경북 영천시","lat":36.0628,"lng":128.8131,"order":"대한불교조계종","headquarter":"은해사 부속","founded":1500,"highlight":"비구니 강원.","programs":["체험형","비구니"]},
    {"id":"gokwon","name_ko":"고운사 운수암","name_en":"Goun Unsuam","city":"의성","sido":"경상북도","address":"경북 의성군 단촌면","lat":36.3492,"lng":128.7494,"order":"대한불교조계종","headquarter":"고운사 부속","founded":900,"highlight":"고운사 부속.","programs":["휴식형"]},
    {"id":"songgwangam","name_ko":"송광사 산내암자","name_en":"Songgwang Branches","city":"순천","sido":"전라남도","address":"전남 순천시 송광면","lat":35.0017,"lng":127.2864,"order":"대한불교조계종","headquarter":"송광사 부속","founded":1100,"highlight":"송광사 16국사 암자군.","programs":["체험형","16국사"]},
    {"id":"jeoungaksa","name_ko":"증각사","name_en":"Jeunggaksa","city":"양산","sido":"경상남도","address":"경남 양산시","lat":35.4789,"lng":129.0769,"order":"대한불교조계종","headquarter":"제15교구","founded":1700,"highlight":"양산.","programs":["당일형"]},
    {"id":"daewonjip","name_ko":"대원사 본찰","name_en":"Daewonsa","city":"산청","sido":"경상남도","address":"경남 산청군 삼장면 대원사길 455","lat":35.4153,"lng":127.8861,"order":"대한불교조계종","headquarter":"제12교구","founded":548,"highlight":"지리산 자락. 비구니 강원.","programs":["체험형","비구니"]},
    {"id":"yoyangsa","name_ko":"요양사","name_en":"Yoyangsa","city":"공주","sido":"충청남도","address":"충남 공주시","lat":36.4592,"lng":127.1294,"order":"대한불교조계종","headquarter":"제6교구","founded":1800,"highlight":"공주 산속.","programs":["휴식형"]},
    {"id":"chongnimsa-w","name_ko":"총림사(완주)","name_en":"Chongnimsa Wanju","city":"완주","sido":"전라북도","address":"전북 완주군","lat":35.9344,"lng":127.2158,"order":"대한불교조계종","headquarter":"제17교구","founded":1700,"highlight":"완주.","programs":["당일형"]},
    {"id":"baekam","name_ko":"백암산 정혜사","name_en":"Baegam Jeonghyesa","city":"공주","sido":"충청남도","address":"충남 공주시 사곡면","lat":36.5594,"lng":126.9756,"order":"대한불교조계종","headquarter":"제6교구","founded":1700,"highlight":"마곡사 부속.","programs":["휴식형"]},
    {"id":"seonsamsa","name_ko":"선암사","name_en":"Seonamsa","city":"순천","sido":"전라남도","address":"전남 순천시 승주읍 선암사길 450","lat":35.0014,"lng":127.3097,"order":"한국불교태고종","headquarter":"태고종 본사","founded":542,"highlight":"태고종 본사. UNESCO 산사. 보물 다수.","programs":["체험형","태고종"]},
    {"id":"hwasununjusa","name_ko":"운주사","name_en":"Unjusa","city":"화순","sido":"전라남도","address":"전남 화순군 도암면 천태로 91-44","lat":34.9211,"lng":126.7986,"order":"대한불교조계종","headquarter":"제21교구","founded":900,"highlight":"천불천탑. 동양 신비.","programs":["체험형","천불천탑"]}
  ]
}
